[{"id":737,"type":"marker","name":"Praha","details":"","geojson":{"type":"Feature","properties":{"name":"Praha","details":"","type":"marker"},"geometry":{"type":"Point","coordinates":[14.414063,50.092393]}}},{"id":748,"type":"marker","name":"Berlín","details":"","geojson":{"type":"Feature","properties":{"name":"Berlín","details":"","type":"marker"},"geometry":{"type":"Point","coordinates":[13.381348,52.509535]}}},{"id":829,"type":"marker","name":"Brusel","details":"","geojson":{"type":"Feature","properties":{"name":"Brusel","details":"","type":"marker"},"geometry":{"type":"Point","coordinates":[4.3396,50.854509]}}},{"id":839,"type":"marker","name":"Paříž","details":"","geojson":{"type":"Feature","properties":{"name":"Paříž","details":"","type":"marker"},"geometry":{"type":"Point","coordinates":[2.362061,48.850258]}}},{"id":951,"type":"marker","name":"Madrid","details":"","geojson":{"type":"Feature","properties":{"name":"Madrid","details":"","type":"marker"},"geometry":{"type":"Point","coordinates":[-3.669434,40.363288]}}},{"id":959,"type":"marker","name":"Lisabon","details":"","geojson":{"type":"Feature","properties":{"name":"Lisabon","details":"","type":"marker"},"geometry":{"type":"Point","coordinates":[-9.206543,38.668356]}}},{"id":1022,"type":"marker","name":"Varšava","details":"","geojson":{"type":"Feature","properties":{"name":"Varšava","details":"","type":"marker"},"geometry":{"type":"Point","coordinates":[20.983887,52.214339]}}},{"id":1032,"type":"marker","name":"Bratislava","details":"","geojson":{"type":"Feature","properties":{"name":"Bratislava","details":"","type":"marker"},"geometry":{"type":"Point","coordinates":[17.116699,48.180739]}}},{"id":1040,"type":"marker","name":"Vídeň","details":"","geojson":{"type":"Feature","properties":{"name":"Vídeň","details":"","type":"marker"},"geometry":{"type":"Point","coordinates":[16.369629,48.210032]}}},{"id":1071,"type":"marker","name":"Londýn","details":"","geojson":{"type":"Feature","properties":{"name":"Londýn","details":"","type":"marker"},"geometry":{"type":"Point","coordinates":[-0.131836,51.495065]}}},{"id":1096,"type":"marker","name":"Oslo","details":"","geojson":{"type":"Feature","properties":{"name":"Oslo","details":"","type":"marker"},"geometry":{"type":"Point","coordinates":[10.744629,59.910976]}}},{"id":1118,"type":"marker","name":"Řím","details":"","geojson":{"type":"Feature","properties":{"name":"Řím","details":"","type":"marker"},"geometry":{"type":"Point","coordinates":[12.480469,41.869561]}}},{"id":1354,"type":"marker","name":"Budapešť","details":"","geojson":{"type":"Feature","properties":{"name":"Budapešť","details":"","type":"marker"},"geometry":{"type":"Point","coordinates":[19.050293,47.487513]}}},{"id":1699,"type":"marker","name":"Reykjavík","details":"","geojson":{"type":"Feature","properties":{"name":"Reykjavík","details":"","type":"marker"},"geometry":{"type":"Point","coordinates":[-21.939697,64.139369]}}},{"id":2580,"type":"marker","name":"Sofia","details":"","geojson":{"type":"Feature","properties":{"name":"Sofia","details":"","type":"marker"},"geometry":{"type":"Point","coordinates":[23.312988,42.678397]}}},{"id":2863,"type":"marker","name":"Atény","details":"","geojson":{"type":"Feature","properties":{"name":"Atény","details":"","type":"marker"},"geometry":{"type":"Point","coordinates":[23.735962,37.971267]}}},{"id":3288,"type":"marker","name":"Bukurešť","details":"","geojson":{"type":"Feature","properties":{"name":"Bukurešť","details":"","type":"marker"},"geometry":{"type":"Point","coordinates":[26.103516,44.441624]}}},{"id":3370,"type":"marker","name":"ČR","details":"","geojson":{"type":"Feature","properties":{"name":"ČR","details":"","type":"marker"},"geometry":{"type":"Point","coordinates":[14.458008,50.064192]}}},{"id":3459,"type":"marker","name":"Německo","details":"","geojson":{"type":"Feature","properties":{"name":"Německo","details":"","type":"marker"},"geometry":{"type":"Point","coordinates":[13.447266,52.456009]}}},{"id":3468,"type":"marker","name":"Norsko","details":"","geojson":{"type":"Feature","properties":{"name":"Norsko","details":"","type":"marker"},"geometry":{"type":"Point","coordinates":[10.810547,59.933]}}},{"id":3480,"type":"marker","name":"Polsko","details":"","geojson":{"type":"Feature","properties":{"name":"Polsko","details":"","type":"marker"},"geometry":{"type":"Point","coordinates":[21.049805,52.241256]}}},{"id":3490,"type":"marker","name":"Velká Británie","details":"","geojson":{"type":"Feature","properties":{"name":"Velká Británie","details":"","type":"marker"},"geometry":{"type":"Point","coordinates":[-0.131836,51.536086]}}},{"id":3618,"type":"marker","name":"Nizozemsko","details":"","geojson":{"type":"Feature","properties":{"name":"Nizozemsko","details":"","type":"marker"},"geometry":{"type":"Point","coordinates":[4.855957,52.372246]}}},{"id":3625,"type":"marker","name":"Belgie","details":"","geojson":{"type":"Feature","properties":{"name":"Belgie","details":"","type":"marker"},"geometry":{"type":"Point","coordinates":[4.3396,50.857977]}}},{"id":3805,"type":"marker","name":"Francie","details":"","geojson":{"type":"Feature","properties":{"name":"Francie","details":"","type":"marker"},"geometry":{"type":"Point","coordinates":[2.373047,48.806863]}}},{"id":3954,"type":"marker","name":"Rakousko","details":"","geojson":{"type":"Feature","properties":{"name":"Rakousko","details":"","type":"marker"},"geometry":{"type":"Point","coordinates":[16.369629,48.20271]}}},{"id":3962,"type":"marker","name":"Slovensko","details":"","geojson":{"type":"Feature","properties":{"name":"Slovensko","details":"","type":"marker"},"geometry":{"type":"Point","coordinates":[17.116699,48.166085]}}},{"id":3972,"type":"marker","name":"Maďarsko","details":"","geojson":{"type":"Feature","properties":{"name":"Maďarsko","details":"","type":"marker"},"geometry":{"type":"Point","coordinates":[19.039307,47.502359]}}},{"id":4171,"type":"marker","name":"Rumunsko","details":"","geojson":{"type":"Feature","properties":{"name":"Rumunsko","details":"","type":"marker"},"geometry":{"type":"Point","coordinates":[26.114502,44.441624]}}},{"id":4195,"type":"marker","name":"Bulharsko","details":"","geojson":{"type":"Feature","properties":{"name":"Bulharsko","details":"","type":"marker"},"geometry":{"type":"Point","coordinates":[23.312988,42.666281]}}},{"id":4362,"type":"marker","name":"Řecko","details":"","geojson":{"type":"Feature","properties":{"name":"Řecko","details":"","type":"marker"},"geometry":{"type":"Point","coordinates":[23.730469,37.970185]}}},{"id":4422,"type":"marker","name":"Itálie","details":"","geojson":{"type":"Feature","properties":{"name":"Itálie","details":"","type":"marker"},"geometry":{"type":"Point","coordinates":[12.480469,41.877741]}}},{"id":4600,"type":"marker","name":"Španělsko","details":"","geojson":{"type":"Feature","properties":{"name":"Španělsko","details":"","type":"marker"},"geometry":{"type":"Point","coordinates":[-3.669434,40.371659]}}},{"id":4617,"type":"marker","name":"Portugalsko","details":"","geojson":{"type":"Feature","properties":{"name":"Portugalsko","details":"","type":"marker"},"geometry":{"type":"Point","coordinates":[-9.18457,38.676933]}}},{"id":5077,"type":"marker","name":"Moskva","details":"","geojson":{"type":"Feature","properties":{"name":"Moskva","details":"","type":"marker"},"geometry":{"type":"Point","coordinates":[37.617188,55.825973]}}},{"id":5088,"type":"marker","name":"Rusko","details":"","geojson":{"type":"Feature","properties":{"name":"Rusko","details":"","type":"marker"},"geometry":{"type":"Point","coordinates":[37.529297,55.627996]}}}]
